[{"id":1,"groupId":2,"fullName":"Esraa Gamal","mobile":"0123456789","longitude":"39.8250191293093","latitude":"21.426308258504","outOfRange":false,"active":true,"tracked":true,"notify":true,"hasReported":true},{"id":2,"groupId":2,"fullName":"Nada Gamal","mobile":"0123456789","longitude":"39.8255517390666","latitude":"21.425965758504","outOfRange":false,"active":true,"tracked":true,"notify":true,"hasReported":true},{"id":3,"groupId":2,"fullName":"Tameem Ibrahim","mobile":"0123456789","longitude":"39.8244505731752","latitude":"21.426171458504","outOfRange":false,"active":true,"tracked":true,"notify":true,"hasReported":true},{"id":4,"groupId":2,"fullName":"Mohamed Ahmed","mobile":"0123456789","longitude":"39.8252611701561","latitude":"21.426345358504","outOfRange":false,"active":true,"tracked":true,"notify":true,"hasReported":true},{"id":5,"groupId":2,"fullName":"Manafa Mohamed","mobile":"0123456789","longitude":"39.8244505731752","latitude":"21.426171458504","outOfRange":false,"active":true,"tracked":true,"notify":true,"hasReported":true},{"id":6,"groupId":2,"fullName":"Youssef Mohamed","mobile":"0123456789","longitude":"39.824874244323","latitude":"21.425536158504","outOfRange":false,"active":true,"tracked":true,"notify":true,"hasReported":true},{"id":7,"groupId":2,"fullName":"Ahmed Mohamed","mobile":"0123456789","longitude":"39.8262992304413","latitude":"21.425712358504","outOfRange":false,"active":true,"tracked":true,"notify":true,"hasReported":true},{"id":8,"groupId":2,"fullName":"Sara Gamal","mobile":"0123456789","longitude":"39.8278710009915","latitude":"21.428170658504","outOfRange":false,"active":true,"tracked":true,"notify":true,"hasReported":false},{"id":9,"groupId":2,"fullName":"Esraa Saif","mobile":"0123456789","longitude":"39.8238231048267","latitude":"21.425944558504","outOfRange":false,"active":true,"tracked":true,"notify":true,"hasReported":false},{"id":10,"groupId":2,"fullName":"Abdelhamed Ahmed","mobile":"0123456789","longitude":"39.8256056590788","latitude":"21.426059358504","outOfRange":false,"active":true,"tracked":true,"notify":true,"hasReported":false},{"id":11,"groupId":2,"fullName":"Nermeen Samy","mobile":"0123456789","longitude":"39.8277711489101","latitude":"21.427170658504","outOfRange":false,"active":true,"tracked":true,"notify":true,"hasReported":false},{"id":12,"groupId":2,"fullName":"Hussien Ahmed","mobile":"0123456789","longitude":"39.8266041783132","latitude":"21.425059358504","outOfRange":false,"active":true,"tracked":true,"notify":true,"hasReported":false},{"id":13,"groupId":2,"fullName":"Omar Elsawy","mobile":"0123456789","longitude":"39.825505807206","latitude":"21.427059358504","outOfRange":true,"active":true,"tracked":true,"notify":true,"hasReported":false}]